[
    {
        "place_id": "ChIJadHET_axjxIRGOJLuLvtGFI",
        "name": "HM spa et sport",
        "lat": 36.74958970000001,
        "lng": 2.9481484,
        "city": "Alger"
    },
    {
        "place_id": "ChIJ8wQ0Br-xjxIRlN7GeE9H8QQ",
        "name": "BRfoot",
        "lat": 36.749009699999995,
        "lng": 2.9488072,
        "city": "Alger"
    },
    {
        "place_id": "ChIJ87lQL0RRjhIRoK3Z_Aimaqs",
        "name": "California Gym",
        "lat": 36.7088584,
        "lng": 3.1907538,
        "city": "Alger"
    },
    {
        "place_id": "ChIJd-zKUF6xjxIROOk5ORe8yw4",
        "name": "FLEXON Club99",
        "lat": 36.755993,
        "lng": 2.9510061999999997,
        "city": "Alger"
    },
    {
        "place_id": "ChIJvStaVbmtjxIRdUVxesIlutU",
        "name": "Citi'Zen Gym Club",
        "lat": 36.7230639,
        "lng": 3.0422906999999997,
        "city": "Alger"
    },
    {
        "place_id": "ChIJ6a9YkHlSjhIRSDxPElIU_Rs",
        "name": "Hani HÃ´tel",
        "lat": 36.7302924,
        "lng": 3.1779303,
        "city": "Alger"
    },
    {
        "place_id": "ChIJUVxzPvGtjxIRkDGOr3IdMqA",
        "name": "SARL THE GYMLAND",
        "lat": 36.6976383,
        "lng": 3.0534784000000004,
        "city": "Alger"
    },
    {
        "place_id": "ChIJPyGgz66jjxIRYsBRxWBLBr4",
        "name": "DZ1 Foot & Fitness Zeralda",
        "lat": 36.7000034,
        "lng": 2.8244867,
        "city": "Alger"
    },
    {
        "place_id": "ChIJIc-BHgCzjxIRDX5CSLe6GJw",
        "name": "Golf Elmouradia elmadania",
        "lat": 36.7492192,
        "lng": 3.0540141999999997,
        "city": "Alger"
    },
    {
        "place_id": "ChIJFdlXlLOxjxIRhKwmWF2Vwcg",
        "name": "Cosmo GYM",
        "lat": 36.745030299999996,
        "lng": 3.0011777,
        "city": "Alger"
    },
    {
        "place_id": "ChIJo156IWRPjhIRQbQpCR_Z8Hs",
        "name": "Kora Land 9 Bordj El Kiffan",
        "lat": 36.75448550000001,
        "lng": 3.2168219,
        "city": "Alger"
    },
    {
        "place_id": "ChIJp3U8FQCxjxIRG2Ty2j5chS8",
        "name": "Ma fitness Cheraga",
        "lat": 36.7527085,
        "lng": 2.9501017,
        "city": "Alger"
    },
    {
        "place_id": "ChIJzU8JNW-tjxIRDD2ZeObaUtg",
        "name": "Fitness city",
        "lat": 36.7242332,
        "lng": 3.0917418,
        "city": "Alger"
    },
    {
        "place_id": "ChIJb7Bv0LazjxIRJ6ecqfEJvqU",
        "name": "Home Fit",
        "lat": 36.7470052,
        "lng": 3.0433613,
        "city": "Alger"
    },
    {
        "place_id": "ChIJGWIzUHStjxIRQuy426g9XXY",
        "name": "GIGA Fitness",
        "lat": 36.7196826,
        "lng": 3.0368662,
        "city": "Alger"
    },
    {
        "place_id": "ChIJ4bDzVOGxjxIRYD0Np2pKqKc",
        "name": "Tiger Sport",
        "lat": 36.763922199999996,
        "lng": 2.9653905999999997,
        "city": "Alger"
    },
    {
        "place_id": "ChIJK1_m4iywjxIREPPkm71KYX0",
        "name": "JB Fitness",
        "lat": 36.752819699999996,
        "lng": 2.9793672,
        "city": "Alger"
    },
    {
        "place_id": "ChIJX6xxuU-xjxIRbEZYaRe2wNU",
        "name": "Best body gym cheraga",
        "lat": 36.7616866,
        "lng": 2.9512931,
        "city": "Alger"
    },
    {
        "place_id": "ChIJk3jfX_VTjhIRaMgpb2XqROk",
        "name": "Golden Fitness",
        "lat": 36.726613799999996,
        "lng": 3.1383731999999998,
        "city": "Alger"
    },
    {
        "place_id": "ChIJk613_pGvjxIRx-EnU07CBqg",
        "name": "Elle fit & Spa salle de sport",
        "lat": 36.7276315,
        "lng": 3.0048239999999997,
        "city": "Alger"
    },
    {
        "place_id": "ChIJbxyqkWl9fg0REfduGRrOkaM",
        "name": "ma-fitness",
        "lat": 35.740502899999996,
        "lng": -0.5395810999999999,
        "city": "Oran"
    },
    {
        "place_id": "ChIJd6CVJppifg0RSHJECwm2cwo",
        "name": "Power Gym, salle de musculation, fitness et cardio",
        "lat": 35.711661,
        "lng": -0.593561,
        "city": "Oran"
    },
    {
        "place_id": "ChIJN4rsvCKJfg0RvlojTYmgGZA",
        "name": "Fitness factory",
        "lat": 35.7108713,
        "lng": -0.6129152999999999,
        "city": "Oran"
    },
    {
        "place_id": "ChIJmxRpZQeJfg0RIJnWwQny728",
        "name": "Oxygen Gym Oran",
        "lat": 35.6787487,
        "lng": -0.6440478,
        "city": "Oran"
    },
    {
        "place_id": "ChIJjfdzY05jfg0RBKkcj2-X8VQ",
        "name": "Cardio fitness center",
        "lat": 35.709699199999996,
        "lng": -0.5883048,
        "city": "Oran"
    },
    {
        "place_id": "ChIJMe0w0QiJfg0Rt4Qfk4sQhTA",
        "name": "Maxi Fitness",
        "lat": 35.682016499999996,
        "lng": -0.6436892000000001,
        "city": "Oran"
    },
    {
        "place_id": "ChIJJ0blEhZ9fg0RWvLLuK6VsPo",
        "name": "FITNESSTREET",
        "lat": 35.7524844,
        "lng": -0.547711,
        "city": "Oran"
    },
    {
        "place_id": "ChIJE1wygNGJfg0Ruiny-1ObfNo",
        "name": "1 6 8 Fitness oran",
        "lat": 35.695003799999995,
        "lng": -0.6168739,
        "city": "Oran"
    },
    {
        "place_id": "ChIJ_Xga3ZeJfg0R0edq9StfCh0",
        "name": "S18 TRAINING CLUB",
        "lat": 35.6524425,
        "lng": -0.6264579,
        "city": "Oran"
    },
    {
        "place_id": "ChIJ2SzjsjWIfg0R_Rmlp3x2Exo",
        "name": "Olympia Gym",
        "lat": 35.6989904,
        "lng": -0.6181587,
        "city": "Oran"
    },
    {
        "place_id": "ChIJG8UAJwCJfg0RILNL-fZ4UKI",
        "name": "CitePetit",
        "lat": 35.6772766,
        "lng": -0.6724133,
        "city": "Oran"
    },
    {
        "place_id": "ChIJi8T-FwBjfg0RCLKi4CBs5mg",
        "name": "Power fitness Oran plaza",
        "lat": 35.717935000000004,
        "lng": -0.5988397,
        "city": "Oran"
    },
    {
        "place_id": "ChIJu-pcORWJfg0RbSXcvYiMuZs",
        "name": "Planete Fitness",
        "lat": 35.6718216,
        "lng": -0.662975,
        "city": "Oran"
    },
    {
        "place_id": "ChIJO_tXYvmJfg0R5htakdmq-zw",
        "name": "Fox Gym Oran",
        "lat": 35.68964,
        "lng": -0.6547949,
        "city": "Oran"
    },
    {
        "place_id": "ChIJo5HC6rxifg0R68W-F5Zvws8",
        "name": "DIDI GYM",
        "lat": 35.7214051,
        "lng": -0.5907007,
        "city": "Oran"
    },
    {
        "place_id": "ChIJGSIr3oCJfg0RkX0Le6BU9F4",
        "name": "World Gym Oran",
        "lat": 35.7118975,
        "lng": -0.623541,
        "city": "Oran"
    },
    {
        "place_id": "ChIJK_vF1JCJfg0Rpjbp7l8Dg7w",
        "name": "RD GYM",
        "lat": 35.6996794,
        "lng": -0.6396062,
        "city": "Oran"
    },
    {
        "place_id": "ChIJpaMnjxljfg0Rptsb7KzXZ78",
        "name": "PLANET GYM",
        "lat": 35.7124514,
        "lng": -0.5736496999999999,
        "city": "Oran"
    },
    {
        "place_id": "ChIJd20UrCRjfg0RaXqW4xMtVNs",
        "name": "LEGION FITNESS",
        "lat": 35.735679499999996,
        "lng": -0.5827903999999999,
        "city": "Oran"
    },
    {
        "place_id": "ChIJ0y8hd06Ifg0RqXYaGq07If8",
        "name": "Salle de sports Hichami Gym",
        "lat": 35.700944199999995,
        "lng": -0.6280424,
        "city": "Oran"
    }
]